Place_Id,Place_Name,Description,Category,City,Price,Rating,Time_Minutes,Coordinate,Lat,Long
1,Monumen Nasional,Monumen Nasional is a good place to visit,Budaya,Jakarta,20000,4.6,15,"{'lat': -6.1753924, 'lng': 106.8271528}",-6.1753924,106.8271528
2,Kota Tua,Kota Tua is a good place to visit,Budaya,Jakarta,0,4.6,90,"{'lat': -6.137644799999999, 'lng': 106.8171245}",-6.1376448,106.8171245
3,Dunia Fantasi,Dunia Fantasi is a good place to visit,Taman Hiburan,Jakarta,270000,4.6,360,"{'lat': -6.125312399999999, 'lng': 106.8335377}",-6.1253124,106.8335377
4,Taman Mini Indonesia Indah (TMII),Taman Mini Indonesia Indah (TMII) is a good place to visit,Taman Hiburan,Jakarta,10000,4.5,,"{'lat': -6.302445899999999, 'lng': 106.8951559}",-6.3024459,106.8951559
5,Atlantis Water Adventure,Atlantis Water Adventure is a good place to visit,Taman Hiburan,Jakarta,94000,4.5,60,"{'lat': -6.12419, 'lng': 106.839134}",-6.12419,106.839134
6,Taman Impian Jaya Ancol,Taman Impian Jaya Ancol is a good place to visit,Taman Hiburan,Jakarta,25000,4.5,10,"{'lat': -6.117333200000001, 'lng': 106.8579951}",-6.1173332,106.8579951
7,Kebun Binatang Ragunan,Kebun Binatang Ragunan is a good place to visit,Cagar Alam,Jakarta,4000,4.5,,"{'lat': -6.3124593, 'lng': 106.8201865}",-6.3124593,106.8201865
8,Ocean Ecopark,Ocean Ecopark is a good place to visit,Taman Hiburan,Jakarta,180000,4,,"{'lat': -6.125801699999999, 'lng': 106.8363249}",-6.1258017,106.8363249
9,Pelabuhan Marina,Pelabuhan Marina is a good place to visit,Bahari,Jakarta,175000,4.4,,"{'lat': 1.07888, 'lng': 103.931398}",1.07888,103.931398
10,Pulau Tidung,Pulau Tidung is a good place to visit,Bahari,Jakarta,150000,4.5,,"{'lat': -5.803205300000001, 'lng': 106.5237907}",-5.8032053,106.5237907
11,Pulau Bidadari,Pulau Bidadari is a good place to visit,Bahari,Jakarta,5000,4.6,,"{'lat': -6.035832999999999, 'lng': 106.746944}",-6.035833,106.746944
12,Pulau Pari,Pulau Pari is a good place to visit,Bahari,Jakarta,150000,4,,"{'lat': -5.9074328, 'lng': 106.5863989}",-5.9074328,106.5863989
13,Pulau Pramuka,Pulau Pramuka is a good place to visit,Bahari,Jakarta,5000,4.2,,"{'lat': -5.745962, 'lng': 106.6136577}",-5.745962,106.6136577
14,Pulau Pelangi,Pulau Pelangi is a good place to visit,Bahari,Jakarta,900000,4.8,,"{'lat': -5.587055, 'lng': 106.5885}",-5.587055,106.5885
15,Pasar Seni,Pasar Seni is a good place to visit,Pusat Perbelanjaan,Jakarta,0,4.4,90,"{'lat': -6.1766868, 'lng': 106.8417666}",-6.1766868,106.8417666
16,Jembatan Kota Intan,Jembatan Kota Intan is a good place to visit,Budaya,Jakarta,0,4.3,,"{'lat': -6.1314572, 'lng': 106.8106169}",-6.1314572,106.8106169
17,Museum Fatahillah,Museum Fatahillah is a good place to visit,Budaya,Jakarta,5000,4.4,,"{'lat': -6.136448899999999, 'lng': 106.8130661}",-6.1364489,106.8130661
18,Museum Bank Indonesia,Museum Bank Indonesia is a good place to visit,Budaya,Jakarta,2000,4.7,,"{'lat': -6.137127, 'lng': 106.813005}",-6.137127,106.813005
19,Kidzania,Kidzania is a good place to visit,Taman Hiburan,Jakarta,185000,4.6,300,"{'lat': -6.225073499999999, 'lng': 106.8097144}",-6.2250735,106.8097144
20,Museum Taman Prasasti,Museum Taman Prasasti is a good place to visit,Budaya,Jakarta,2000,4.5,90,"{'lat': -6.172224099999998, 'lng': 106.8189695}",-6.1722241,106.8189695
21,Museum Wayang,Museum Wayang is a good place to visit,Budaya,Jakarta,5000,4.5,150,"{'lat': -6.1349072, 'lng': 106.8124452}",-6.1349072,106.8124452
22,Masjid Istiqlal,Masjid Istiqlal is a good place to visit,Tempat Ibadah,Jakarta,0,4.7,,"{'lat': -6.17017, 'lng': 106.83139}",-6.17017,106.83139
23,Gereja Katedral,Gereja Katedral is a good place to visit,Tempat Ibadah,Jakarta,0,4.8,,"{'lat': -6.169225000000001, 'lng': 106.833063}",-6.169225,106.833063
24,Museum Nasional,Museum Nasional is a good place to visit,Budaya,Jakarta,5000,4.6,,"{'lat': -6.176402099999999, 'lng': 106.8215901}",-6.1764021,106.8215901
25,Pasar Tanah Abang,Pasar Tanah Abang is a good place to visit,Pusat Perbelanjaan,Jakarta,0,4,45,"{'lat': -6.189009599999999, 'lng': 106.8119312}",-6.1890096,106.8119312
26,Pecinan Glodok,Pecinan Glodok is a good place to visit,Pusat Perbelanjaan,Jakarta,0,4.3,20,"{'lat': -6.142758799999999, 'lng': 106.8140791}",-6.1427588,106.8140791
27,Sea World,Sea World is a good place to visit,Taman Hiburan,Jakarta,115000,4.5,180,"{'lat': -6.126477500000001, 'lng': 106.842963}",-6.1264775,106.842963
28,Wisata Agro Edukatif Istana Susu Cibugary,Wisata Agro Edukatif Istana Susu Cibugary is a good place to visit,Taman Hiburan,Jakarta,35000,4.5,,"{'lat': -6.3568093, 'lng': 106.9062371}",-6.3568093,106.9062371
29,Wisata Kuliner Pecenongan,Wisata Kuliner Pecenongan is a good place to visit,Pusat Perbelanjaan,Jakarta,0,5,,"{'lat': -6.166788700000001, 'lng': 106.8265261}",-6.1667887,106.8265261
30,Taman Menteng,Taman Menteng is a good place to visit,Taman Hiburan,Jakarta,0,4.5,,"{'lat': -6.1964087, 'lng': 106.8293106}",-6.1964087,106.8293106
31,Wisata Alam Mangrove Angke,Wisata Alam Mangrove Angke is a good place to visit,Cagar Alam,Jakarta,25000,4.3,,"{'lat': -6.105334, 'lng': 106.735584}",-6.105334,106.735584
32,Setu Babakan,Setu Babakan is a good place to visit,Budaya,Jakarta,0,4.4,,"{'lat': -6.341666699999999, 'lng': 106.8238889}",-6.3416667,106.8238889
33,Taman Suropati,Taman Suropati is a good place to visit,Taman Hiburan,Jakarta,0,4.6,,"{'lat': -6.1994034, 'lng': 106.8326228}",-6.1994034,106.8326228
34,Pasar Taman Puring,Pasar Taman Puring is a good place to visit,Pusat Perbelanjaan,Jakarta,0,4.4,60,"{'lat': -6.241368999999999, 'lng': 106.7890587}",-6.241369,106.7890587
35,Grand Indonesia Mall,Grand Indonesia Mall is a good place to visit,Pusat Perbelanjaan,Jakarta,0,4.7,120,"{'lat': -6.195180099999999, 'lng': 106.8204412}",-6.1951801,106.8204412
36,Skyrink - Mall Taman Anggrek,Skyrink - Mall Taman Anggrek is a good place to visit,Taman Hiburan,Jakarta,110000,4.5,180,"{'lat': -6.178996, 'lng': 106.791941}",-6.178996,106.791941
37,Bumi Perkemahan Cibubur,Bumi Perkemahan Cibubur is a good place to visit,Taman Hiburan,Jakarta,10000,4.5,,"{'lat': -6.360248700000001, 'lng': 106.893842}",-6.3602487,106.893842
38,Istana Negara Republik Indonesia,Istana Negara Republik Indonesia is a good place to visit,Budaya,Jakarta,0,4.6,,"{'lat': -6.168069000000001, 'lng': 106.8239727}",-6.168069,106.8239727
39,Museum Macan (Modern and Contemporary Art in Nusantara),Museum Macan (Modern and Contemporary Art in Nusantara) is a good place to visit,Budaya,Jakarta,100000,4.5,120,"{'lat': -6.190942, 'lng': 106.767622}",-6.190942,106.767622
40,Galeri Nasional Indonesia,Galeri Nasional Indonesia is a good place to visit,Budaya,Jakarta,0,4.6,,"{'lat': -6.178548200000001, 'lng': 106.8327716}",-6.1785482,106.8327716
41,Museum Bahari Jakarta,Museum Bahari Jakarta is a good place to visit,Budaya,Jakarta,2000,4.4,120,"{'lat': -6.1269553, 'lng': 106.8085899}",-6.1269553,106.8085899
42,Museum Seni Rupa dan Kramik,Museum Seni Rupa dan Kramik is a good place to visit,Budaya,Jakarta,5000,4.4,,"{'lat': -6.1342598, 'lng': 106.814552}",-6.1342598,106.814552
43,The Escape Hunt,The Escape Hunt is a good place to visit,Taman Hiburan,Jakarta,70000,4.4,120,"{'lat': -6.2555033, 'lng': 106.8122591}",-6.2555033,106.8122591
44,Monumen Selamat Datang,Monumen Selamat Datang is a good place to visit,Budaya,Jakarta,0,4.7,15,"{'lat': -6.194997799999999, 'lng': 106.8230496}",-6.1949978,106.8230496
45,Jakarta Aquarium dan Safari,Jakarta Aquarium dan Safari is a good place to visit,Taman Hiburan,Jakarta,185000,4.6,,"{'lat': -6.1752647, 'lng': 106.7904684}",-6.1752647,106.7904684
46,Pulau Semak Daun,Pulau Semak Daun is a good place to visit,Bahari,Jakarta,40000,4,,"{'lat': -5.729671599999999, 'lng': 106.5714158}",-5.7296716,106.5714158
47,Taman Situ Lembang,Taman Situ Lembang is a good place to visit,Taman Hiburan,Jakarta,0,4.5,,"{'lat': -6.1978861, 'lng': 106.8346708}",-6.1978861,106.8346708
48,Taman Ismail Marzuki,Taman Ismail Marzuki is a good place to visit,Budaya,Jakarta,5000,4.6,,"{'lat': -6.1891586, 'lng': 106.8397738}",-6.1891586,106.8397738
49,Galeri Indonesia Kaya,Galeri Indonesia Kaya is a good place to visit,Budaya,Jakarta,0,4.8,90,"{'lat': -6.1948499, 'lng': 106.8200607}",-6.1948499,106.8200607
50,Museum Joang 45,Museum Joang 45 is a good place to visit,Budaya,Jakarta,2000,4,,"{'lat': -6.186183799999998, 'lng': 106.8364761}",-6.1861838,106.8364761
51,Jakarta Planetarium,Jakarta Planetarium is a good place to visit,Taman Hiburan,Jakarta,12000,4.1,120,"{'lat': -6.190081899999999, 'lng': 106.8388532}",-6.1900819,106.8388532
52,Kampung Cina,Kampung Cina is a good place to visit,Budaya,Jakarta,15000,4.5,,"{'lat': -6.3651357, 'lng': 106.7617984}",-6.3651357,106.7617984
53,Rumah Sipitung,Rumah Sipitung is a good place to visit,Budaya,Jakarta,5000,4.5,90,"{'lat': -6.10016, 'lng': 106.96057}",-6.10016,106.96057
54,Taman Agrowisata Cilangkap,Taman Agrowisata Cilangkap is a good place to visit,Taman Hiburan,Jakarta,0,4.2,,"{'lat': -6.340151399999999, 'lng': 106.9012561}",-6.3401514,106.9012561
55,Klenteng Jin De Yuan,Klenteng Jin De Yuan is a good place to visit,Tempat Ibadah,Jakarta,0,4.5,,"{'lat': -6.144473700000001, 'lng': 106.8126018}",-6.1444737,106.8126018
56,Pantai Ancol,Pantai Ancol is a good place to visit,Bahari,Jakarta,25000,4.4,,"{'lat': -6.1194215, 'lng': 106.8502435}",-6.1194215,106.8502435
57,Taman Lapangan Banteng,Taman Lapangan Banteng is a good place to visit,Taman Hiburan,Jakarta,0,4.7,,"{'lat': -6.170554999999999, 'lng': 106.8350378}",-6.170555,106.8350378
58,Taman Ayodya,Taman Ayodya is a good place to visit,Taman Hiburan,Jakarta,0,4.4,45,"{'lat': -6.245229400000001, 'lng': 106.7946655}",-6.2452294,106.7946655
59,Museum Sumpah Pemuda,Museum Sumpah Pemuda is a good place to visit,Budaya,Jakarta,2000,4.7,,"{'lat': -6.183838799999999, 'lng': 106.8430507}",-6.1838388,106.8430507
60,Museum Tekstil,Museum Tekstil is a good place to visit,Budaya,Jakarta,5000,4.5,45,"{'lat': -6.187963400000002, 'lng': 106.8096081}",-6.1879634,106.8096081
61,Tugu Proklamasi,Tugu Proklamasi is a good place to visit,Budaya,Jakarta,0,4.6,,"{'lat': -6.2030468, 'lng': 106.8466623}",-6.2030468,106.8466623
62,Taman Legenda Keong Emas,Taman Legenda Keong Emas is a good place to visit,Taman Hiburan,Jakarta,30000,4.5,,"{'lat': -6.303904200000001, 'lng': 106.8936219}",-6.3039042,106.8936219
63,Museum Kebangkitan Nasional,Museum Kebangkitan Nasional is a good place to visit,Budaya,Jakarta,2000,4.7,45,"{'lat': -6.178352, 'lng': 106.838094}",-6.178352,106.838094
64,Museum Sasmita Loka Ahmad Yani,Museum Sasmita Loka Ahmad Yani is a good place to visit,Budaya,Jakarta,2000,4.7,45,"{'lat': -6.204630300000001, 'lng': 106.8365324}",-6.2046303,106.8365324
65,Museum Basoeki Abdullah,Museum Basoeki Abdullah is a good place to visit,Budaya,Jakarta,1000,4.6,90,"{'lat': -6.289788499999998, 'lng': 106.7932681}",-6.2897885,106.7932681
66,Museum Layang-layang,Museum Layang-layang is a good place to visit,Budaya,Jakarta,10000,4.5,90,"{'lat': -6.3080282, 'lng': 106.790548}",-6.3080282,106.790548
67,Margasatwa Muara Angke,Margasatwa Muara Angke is a good place to visit,Cagar Alam,Jakarta,25000,4.2,15,"{'lat': -6.1160075, 'lng': 106.7692016}",-6.1160075,106.7692016
68,Pasar Petak Sembilan,Pasar Petak Sembilan is a good place to visit,Pusat Perbelanjaan,Jakarta,0,4.4,45,"{'lat': -6.143672200000001, 'lng': 106.8129398}",-6.1436722,106.8129398
69,Freedom Library,Freedom Library is a good place to visit,Budaya,Jakarta,0,5,,"{'lat': -6.202248200000001, 'lng': 106.8451968}",-6.2022482,106.8451968
70,Perpustakaan Nasional,Perpustakaan Nasional is a good place to visit,Budaya,Jakarta,0,4.7,240,"{'lat': -6.181291799999999, 'lng': 106.8268717}",-6.1812918,106.8268717
71,Cibubur Garden Diary (Cibugary),Cibubur Garden Diary (Cibugary) is a good place to visit,Cagar Alam,Jakarta,50000,4.5,,"{'lat': -6.379996900000001, 'lng': 106.8949793}",-6.3799969,106.8949793
72,Waterboom PIK (Pantai Indah Kapuk),Waterboom PIK (Pantai Indah Kapuk) is a good place to visit,Taman Hiburan,Jakarta,300000,4.4,,"{'lat': -6.113655899999999, 'lng': 106.7478596}",-6.1136559,106.7478596
73,Museum Perangko,Museum Perangko is a good place to visit,Budaya,Jakarta,5000,4.4,,"{'lat': -6.304184100000001, 'lng': 106.9017725}",-6.3041841,106.9017725
74,Museum Tengah Kebun,Museum Tengah Kebun is a good place to visit,Budaya,Jakarta,0,4.6,120,"{'lat': -6.267513, 'lng': 106.824107}",-6.267513,106.824107
75,SnowBay Waterpark,SnowBay Waterpark is a good place to visit,Taman Hiburan,Jakarta,180000,4.3,,"{'lat': -6.299271800000001, 'lng': 106.89151}",-6.2992718,106.89151
76,Taman Cattleya,Taman Cattleya is a good place to visit,Taman Hiburan,Jakarta,20000,4.5,,"{'lat': -6.181084299999999, 'lng': 106.7954476}",-6.1810843,106.7954476
77,Taman Hutan Tebet,Taman Hutan Tebet is a good place to visit,Taman Hiburan,Jakarta,0,4.4,60,"{'lat': -6.237140900000001, 'lng': 106.8526505}",-6.2371409,106.8526505
78,Hutan Kota Srengseng,Hutan Kota Srengseng is a good place to visit,Taman Hiburan,Jakarta,1000,4.3,,"{'lat': -6.210694499999999, 'lng': 106.7643954}",-6.2106945,106.7643954
79,Taman Spathodea,Taman Spathodea is a good place to visit,Taman Hiburan,Jakarta,0,4.6,30,"{'lat': -6.3226133, 'lng': 106.8241871}",-6.3226133,106.8241871
80,Plaza Indonesia,Plaza Indonesia is a good place to visit,Pusat Perbelanjaan,Jakarta,0,4.7,120,"{'lat': -6.193925900000002, 'lng': 106.8222158}",-6.1939259,106.8222158
81,Mall Thamrin City,Mall Thamrin City is a good place to visit,Pusat Perbelanjaan,Jakarta,0,4.4,60,"{'lat': -6.1946096, 'lng': 106.817905}",-6.1946096,106.817905
82,Museum Satria Mandala,Museum Satria Mandala is a good place to visit,Budaya,Jakarta,5000,4.5,150,"{'lat': -6.231698499999999, 'lng': 106.8185425}",-6.2316985,106.8185425
83,Alive Museum Ancol,Alive Museum Ancol is a good place to visit,Taman Hiburan,Jakarta,200000,4.3,,"{'lat': -6.117534399999999, 'lng': 106.857313}",-6.1175344,106.857313
84,Kawasan Kuliner BSM,Kawasan Kuliner BSM is a good place to visit,Pusat Perbelanjaan,Jakarta,0,4.6,,"{'lat': -6.184258799999999, 'lng': 106.824033}",-6.1842588,106.824033
85,Taman Pintar Yogyakarta,Taman Pintar Yogyakarta is a good place to visit,Taman Hiburan,Yogyakarta,6000,4.5,120,"{'lat': -7.800671500000001, 'lng': 110.3676551}",-7.8006715,110.3676551
86,Keraton Yogyakarta,Keraton Yogyakarta is a good place to visit,Budaya,Yogyakarta,15000,4.6,,"{'lat': -7.8052845, 'lng': 110.3642031}",-7.8052845,110.3642031
87,Sindu Kusuma Edupark (SKE),Sindu Kusuma Edupark (SKE) is a good place to visit,Taman Hiburan,Yogyakarta,20000,4.2,120,"{'lat': -7.767297300000001, 'lng': 110.3542486}",-7.7672973,110.3542486
88,Museum Benteng Vredeburg Yogyakarta,Museum Benteng Vredeburg Yogyakarta is a good place to visit,Budaya,Yogyakarta,3000,4.6,120,"{'lat': -7.800201599999999, 'lng': 110.3663044}",-7.8002016,110.3663044
89,De Mata Museum Jogja,De Mata Museum Jogja is a good place to visit,Budaya,Yogyakarta,50000,4.4,,"{'lat': -7.816315599999999, 'lng': 110.3871442}",-7.8163156,110.3871442
90,Kampung Wisata Taman Sari,Kampung Wisata Taman Sari is a good place to visit,Taman Hiburan,Yogyakarta,5000,4.6,,"{'lat': -7.8100673, 'lng': 110.3594581}",-7.8100673,110.3594581
91,Situs Warungboto,Situs Warungboto is a good place to visit,Taman Hiburan,Yogyakarta,0,4.4,60,"{'lat': -7.8102685, 'lng': 110.3931513}",-7.8102685,110.3931513
92,Nol Kilometer Jl.Malioboro,Nol Kilometer Jl.Malioboro is a good place to visit,Taman Hiburan,Yogyakarta,0,4.7,45,"{'lat': -7.8013803, 'lng': 110.3647652}",-7.8013803,110.3647652
93,Gembira Loka Zoo,Gembira Loka Zoo is a good place to visit,Cagar Alam,Yogyakarta,60000,4.5,,"{'lat': -7.806234399999999, 'lng': 110.3967977}",-7.8062344,110.3967977
94,Sumur Gumuling,Sumur Gumuling is a good place to visit,Taman Hiburan,Yogyakarta,7000,4.5,,"{'lat': -7.808791100000001, 'lng': 110.3591825}",-7.8087911,110.3591825
95,Desa Wisata Sungai Code Jogja Kota,Desa Wisata Sungai Code Jogja Kota is a good place to visit,Taman Hiburan,Yogyakarta,0,5,,"{'lat': -7.822908900000001, 'lng': 110.3756894}",-7.8229089,110.3756894
96,Alun Alun Selatan Yogyakarta,Alun Alun Selatan Yogyakarta is a good place to visit,Taman Hiburan,Yogyakarta,0,4.6,60,"{'lat': -7.8116719, 'lng': 110.363238}",-7.8116719,110.363238
97,Monumen Yogya Kembali,Monumen Yogya Kembali is a good place to visit,Budaya,Yogyakarta,15000,4.5,30,"{'lat': -7.7495904, 'lng': 110.3696068}",-7.7495904,110.3696068
98,Taman Pelangi Yogyakarta,Taman Pelangi Yogyakarta is a good place to visit,Taman Hiburan,Yogyakarta,15000,4.3,60,"{'lat': -7.7505259, 'lng': 110.3687049}",-7.7505259,110.3687049
99,Kampung Wisata Kadipaten,Kampung Wisata Kadipaten is a good place to visit,Budaya,Yogyakarta,0,4.4,,"{'lat': -7.806093000000001, 'lng': 110.35831}",-7.806093,110.35831
100,Taman Budaya Yogyakarta,Taman Budaya Yogyakarta is a good place to visit,Budaya,Yogyakarta,0,4.5,210,"{'lat': -7.8001041, 'lng': 110.3676579}",-7.8001041,110.3676579
101,Kampung Wisata Sosro Menduran,Kampung Wisata Sosro Menduran is a good place to visit,Budaya,Yogyakarta,0,4,,"{'lat': -7.792189999999999, 'lng': 110.362151}",-7.79219,110.362151
102,Monumen Batik Yogyakarta,Monumen Batik Yogyakarta is a good place to visit,Budaya,Yogyakarta,40000,4.5,15,"{'lat': -7.8011159, 'lng': 110.3646172}",-7.8011159,110.3646172
103,Tugu Pal Putih Jogja,Tugu Pal Putih Jogja is a good place to visit,Taman Hiburan,Yogyakarta,0,4.7,15,"{'lat': -7.782943699999998, 'lng': 110.3670548}",-7.7829437,110.3670548
104,Tebing Breksi,Tebing Breksi is a good place to visit,Budaya,Yogyakarta,20000,4.4,,"{'lat': -7.781571400000001, 'lng': 110.5045827}",-7.7815714,110.5045827
105,Candi Donotirto,Candi Donotirto is a good place to visit,Budaya,Yogyakarta,0,4.4,25,"{'lat': -7.795561299999998, 'lng': 110.3612095}",-7.7955613,110.3612095
106,Kawasan Malioboro,Kawasan Malioboro is a good place to visit,Taman Hiburan,Yogyakarta,0,4.8,,"{'lat': -7.793167, 'lng': 110.3655238}",-7.793167,110.3655238
107,Bangsal Pagelaran,Bangsal Pagelaran is a good place to visit,Budaya,Yogyakarta,5000,4.6,,"{'lat': -7.805284299999999, 'lng': 110.3642137}",-7.8052843,110.3642137
108,Embung Tambakboyo,Embung Tambakboyo is a good place to visit,Taman Hiburan,Yogyakarta,0,4.4,,"{'lat': -7.756227000000001, 'lng': 110.4150131}",-7.756227,110.4150131
109,Hutan Pinus Pengger,Hutan Pinus Pengger is a good place to visit,Taman Hiburan,Yogyakarta,3000,4.5,,"{'lat': -7.870483200000001, 'lng': 110.4599108}",-7.8704832,110.4599108
110,Monumen Serangan Umum 1 Maret,Monumen Serangan Umum 1 Maret is a good place to visit,Taman Hiburan,Yogyakarta,3000,4.6,,"{'lat': -7.801012399999999, 'lng': 110.3653376}",-7.8010124,110.3653376
111,Puncak Pinus Becici,Puncak Pinus Becici is a good place to visit,Taman Hiburan,Yogyakarta,3000,4.5,,"{'lat': -7.902035499999998, 'lng': 110.4374627}",-7.9020355,110.4374627
112,Bukit Bintang Yogyakarta,Bukit Bintang Yogyakarta is a good place to visit,Taman Hiburan,Yogyakarta,25000,4.5,90,"{'lat': -7.845840699999997, 'lng': 110.4798457}",-7.8458407,110.4798457
113,Gedung Agung Yogyakarta,Gedung Agung Yogyakarta is a good place to visit,Budaya,Yogyakarta,0,4.6,,"{'lat': -7.800150599999999, 'lng': 110.3637507}",-7.8001506,110.3637507
114,The Lost World Castle,The Lost World Castle is a good place to visit,Taman Hiburan,Yogyakarta,30000,4.3,,"{'lat': -7.6041648, 'lng': 110.4510042}",-7.6041648,110.4510042
115,Monumen Sanapati,Monumen Sanapati is a good place to visit,Budaya,Yogyakarta,15000,4.3,,"{'lat': -7.788172800000001, 'lng': 110.3715403}",-7.7881728,110.3715403
116,Jurang Tembelan Kanigoro,Jurang Tembelan Kanigoro is a good place to visit,Taman Hiburan,Yogyakarta,2500,4.5,45,"{'lat': -7.940106500000001, 'lng': 110.4300062}",-7.9401065,110.4300062
117,The World Landmarks - Merapi Park Yogyakarta,The World Landmarks - Merapi Park Yogyakarta is a good place to visit,Taman Hiburan,Yogyakarta,22000,4.2,90,"{'lat': -7.620904599999999, 'lng': 110.4216275}",-7.6209046,110.4216275
118,Museum Sonobudoyo Unit I,Museum Sonobudoyo Unit I is a good place to visit,Budaya,Yogyakarta,5000,4.6,120,"{'lat': -7.8024499, 'lng': 110.3639555}",-7.8024499,110.3639555
119,Lava Bantal,Lava Bantal is a good place to visit,Budaya,Yogyakarta,5000,4.4,30,"{'lat': -7.808151800000001, 'lng': 110.4595183}",-7.8081518,110.4595183
120,Bukit Panguk Kediwung,Bukit Panguk Kediwung is a good place to visit,Budaya,Yogyakarta,250000,4.5,90,"{'lat': -7.9583695, 'lng': 110.4407622}",-7.9583695,110.4407622
121,Candi Prambanan,Candi Prambanan is a good place to visit,Budaya,Yogyakarta,50000,4.7,,"{'lat': -7.752020600000001, 'lng': 110.4914674}",-7.7520206,110.4914674
122,Watu Goyang,Watu Goyang is a good place to visit,Budaya,Yogyakarta,2500,4.4,45,"{'lat': -7.9274086, 'lng': 110.4120586}",-7.9274086,110.4120586
123,Kampung Wisata Rejowinangun,Kampung Wisata Rejowinangun is a good place to visit,Budaya,Yogyakarta,0,4.3,,"{'lat': -7.8152776, 'lng': 110.3988359}",-7.8152776,110.3988359
124,Kauman Pakualaman Yogyakarta,Kauman Pakualaman Yogyakarta is a good place to visit,Budaya,Yogyakarta,0,5,,"{'lat': -7.801034700000001, 'lng': 110.3751922}",-7.8010347,110.3751922
125,Alun-alun Utara Keraton Yogyakarta,Alun-alun Utara Keraton Yogyakarta is a good place to visit,Budaya,Yogyakarta,0,4.6,60,"{'lat': -7.803897499999998, 'lng': 110.3644232}",-7.8038975,110.3644232
126,Pantai Goa Cemara,Pantai Goa Cemara is a good place to visit,Bahari,Yogyakarta,4000,4.3,,"{'lat': -7.999422999999998, 'lng': 110.248963}",-7.999423,110.248963
127,Blue Lagoon Jogja,Blue Lagoon Jogja is a good place to visit,Taman Hiburan,Yogyakarta,10000,4.3,,"{'lat': -7.7044358, 'lng': 110.45026}",-7.7044358,110.45026
128,Gumuk Pasir Parangkusumo,Gumuk Pasir Parangkusumo is a good place to visit,Taman Hiburan,Yogyakarta,0,4.5,90,"{'lat': -8.0173266, 'lng': 110.3180791}",-8.0173266,110.3180791
129,Bukit Lintang Sewu,Bukit Lintang Sewu is a good place to visit,Taman Hiburan,Yogyakarta,2000,4.5,60,"{'lat': -7.915799699999999, 'lng': 110.4366436}",-7.9157997,110.4366436
130,Studio Alam Gamplong,Studio Alam Gamplong is a good place to visit,Taman Hiburan,Yogyakarta,10000,4.4,120,"{'lat': -7.805793599999998, 'lng': 110.2367304}",-7.8057936,110.2367304
131,Watu Lumbung,Watu Lumbung is a good place to visit,Cagar Alam,Yogyakarta,5000,4.3,30,"{'lat': -7.992437900000001, 'lng': 110.317778}",-7.9924379,110.317778
132,Air Terjun Kedung Pedut,Air Terjun Kedung Pedut is a good place to visit,Cagar Alam,Yogyakarta,20000,4.5,60,"{'lat': -7.769987499999998, 'lng': 110.1210707}",-7.7699875,110.1210707
133,Puncak Kebun Buah Mangunan,Puncak Kebun Buah Mangunan is a good place to visit,Taman Hiburan,Yogyakarta,5000,4.6,90,"{'lat': -7.941371800000001, 'lng': 110.4247345}",-7.9413718,110.4247345
134,Desa Wisata Gamplong,Desa Wisata Gamplong is a good place to visit,Taman Hiburan,Yogyakarta,10000,4.4,60,"{'lat': -7.805523199999997, 'lng': 110.2374676}",-7.8055232,110.2374676
135,Kawasan Wisata Sosrowijayan,Kawasan Wisata Sosrowijayan is a good place to visit,Pusat Perbelanjaan,Yogyakarta,0,4,,"{'lat': -7.7916235, 'lng': 110.361956}",-7.7916235,110.361956
136,Grojogan Watu Purbo Bangunrejo,Grojogan Watu Purbo Bangunrejo is a good place to visit,Taman Hiburan,Yogyakarta,10000,4.5,90,"{'lat': -7.6340172, 'lng': 110.33837}",-7.6340172,110.33837
137,Wisata Alam Kalibiru,Wisata Alam Kalibiru is a good place to visit,Cagar Alam,Yogyakarta,20000,4.4,90,"{'lat': -7.8057305, 'lng': 110.127969}",-7.8057305,110.127969
138,Jogja Exotarium,Jogja Exotarium is a good place to visit,Taman Hiburan,Yogyakarta,20000,4.4,120,"{'lat': -7.7280356, 'lng': 110.3591712}",-7.7280356,110.3591712
139,Puncak Gunung Api Purba - Nglanggeran,Puncak Gunung Api Purba - Nglanggeran is a good place to visit,Cagar Alam,Yogyakarta,10000,4.7,60,"{'lat': -7.841252999999998, 'lng': 110.543056}",-7.841253,110.543056
140,Bendung Lepen,Bendung Lepen is a good place to visit,Taman Hiburan,Yogyakarta,0,4.6,60,"{'lat': -7.831666800000002, 'lng': 110.3945119}",-7.8316668,110.3945119
141,Bunker Kaliadem Merapi,Bunker Kaliadem Merapi is a good place to visit,Cagar Alam,Yogyakarta,3000,4.5,45,"{'lat': -7.582919800000001, 'lng': 110.4476816}",-7.5829198,110.4476816
142,Ledok Sambi,Ledok Sambi is a good place to visit,Cagar Alam,Yogyakarta,0,4.6,150,"{'lat': -7.647094300000001, 'lng': 110.4280998}",-7.6470943,110.4280998
143,Seribu Batu Songgo Langit,Seribu Batu Songgo Langit is a good place to visit,Cagar Alam,Yogyakarta,2000,4.6,90,"{'lat': -7.931098399999999, 'lng': 110.430919}",-7.9310984,110.430919
144,Goa Jomblang,Goa Jomblang is a good place to visit,Cagar Alam,Yogyakarta,500000,4.6,,"{'lat': -8.0281562, 'lng': 110.6383307}",-8.0281562,110.6383307
145,Desa Wisata Rumah Domes/Teletubbies,Desa Wisata Rumah Domes/Teletubbies is a good place to visit,Taman Hiburan,Yogyakarta,5000,4.1,60,"{'lat': -7.813608499999999, 'lng': 110.5033442}",-7.8136085,110.5033442
146,Bukit Wisata Pulepayung,Bukit Wisata Pulepayung is a good place to visit,Cagar Alam,Yogyakarta,10000,4.5,,"{'lat': -7.800110599999999, 'lng': 110.1238954}",-7.8001106,110.1238954
147,Bentara Budaya Yogyakarta (BBY),Bentara Budaya Yogyakarta (BBY) is a good place to visit,Budaya,Yogyakarta,0,4.5,,"{'lat': -7.7857242, 'lng': 110.3746954}",-7.7857242,110.3746954
148,Goa Rancang Kencono,Goa Rancang Kencono is a good place to visit,Cagar Alam,Yogyakarta,5000,4.3,30,"{'lat': -7.9492612, 'lng': 110.4926511}",-7.9492612,110.4926511
149,Goa Cerme,Goa Cerme is a good place to visit,Cagar Alam,Yogyakarta,3000,4.4,90,"{'lat': -7.979441299999999, 'lng': 110.3803114}",-7.9794413,110.3803114
150,Wisata Kraton Jogja,Wisata Kraton Jogja is a good place to visit,Budaya,Yogyakarta,7000,4.7,,"{'lat': -7.806753499999999, 'lng': 110.3636659}",-7.8067535,110.3636659
151,Desa Wisata Kelor,Desa Wisata Kelor is a good place to visit,Taman Hiburan,Yogyakarta,0,4.4,90,"{'lat': -7.641025800000001, 'lng': 110.3622794}",-7.6410258,110.3622794
152,Pantai Patihan,Pantai Patihan is a good place to visit,Bahari,Yogyakarta,5000,4.1,45,"{'lat': -7.997777999999999, 'lng': 110.2449113}",-7.997778,110.2449113
153,Pantai Kukup,Pantai Kukup is a good place to visit,Bahari,Yogyakarta,10000,4,,"{'lat': -8.133876299999999, 'lng': 110.5548349}",-8.1338763,110.5548349
154,Pantai Ngrawe (Mesra),Pantai Ngrawe (Mesra) is a good place to visit,Bahari,Yogyakarta,10000,4.5,,"{'lat': -8.1333389, 'lng': 110.5537405}",-8.1333389,110.5537405
155,Pantai Ngobaran,Pantai Ngobaran is a good place to visit,Bahari,Yogyakarta,5000,4.6,,"{'lat': -8.1184844, 'lng': 110.5028785}",-8.1184844,110.5028785
156,Pantai Pulang Sawal,Pantai Pulang Sawal is a good place to visit,Bahari,Yogyakarta,10000,4.5,,"{'lat': -8.1506589, 'lng': 110.6126311}",-8.1506589,110.6126311
157,Pantai Baron,Pantai Baron is a good place to visit,Bahari,Yogyakarta,10000,4.4,,"{'lat': -8.1288246, 'lng': 110.5487763}",-8.1288246,110.5487763
158,Pantai Pok Tunggal,Pantai Pok Tunggal is a good place to visit,Bahari,Yogyakarta,10000,4.5,,"{'lat': -8.1554468, 'lng': 110.6217582}",-8.1554468,110.6217582
159,Hutan Pinus Asri,Hutan Pinus Asri is a good place to visit,Cagar Alam,Yogyakarta,2500,4.5,,"{'lat': -7.9209209, 'lng': 110.4355651}",-7.9209209,110.4355651
160,Pasar Kebon Empring Bintaran,Pasar Kebon Empring Bintaran is a good place to visit,Pusat Perbelanjaan,Yogyakarta,0,4.4,,"{'lat': -7.836320499999998, 'lng': 110.4575806}",-7.8363205,110.4575806
161,"Bukit Paralayang, Watugupit","Bukit Paralayang, Watugupit is a good place to visit",Cagar Alam,Yogyakarta,5000,4.7,90,"{'lat': -8.026855099999999, 'lng': 110.3459122}",-8.0268551,110.3459122
162,Kampung Wisata Dipowinatan,Kampung Wisata Dipowinatan is a good place to visit,Budaya,Yogyakarta,220000,4.5,,"{'lat': -7.810552899999999, 'lng': 110.3704987}",-7.8105529,110.3704987
163,Watu Mabur Mangunan,Watu Mabur Mangunan is a good place to visit,Cagar Alam,Yogyakarta,2500,4.5,60,"{'lat': -7.947121, 'lng': 110.441}",-7.947121,110.441
164,Pintoe Langit Dahromo,Pintoe Langit Dahromo is a good place to visit,Cagar Alam,Yogyakarta,2500,4.4,60,"{'lat': -7.913608000000001, 'lng': 110.437783}",-7.913608,110.437783
165,Green Village Gedangsari,Green Village Gedangsari is a good place to visit,Taman Hiburan,Yogyakarta,2000,4.2,60,"{'lat': -7.813093999999999, 'lng': 110.615571}",-7.813094,110.615571
166,Kebun Teh Nglinggo,Kebun Teh Nglinggo is a good place to visit,Cagar Alam,Yogyakarta,6000,4.5,,"{'lat': -7.647054, 'lng': 110.1414699}",-7.647054,110.1414699
167,Geoforest Watu Payung Turunan,Geoforest Watu Payung Turunan is a good place to visit,Cagar Alam,Yogyakarta,0,4.5,60,"{'lat': -7.974294, 'lng': 110.4364363}",-7.974294,110.4364363
168,Pantai Timang,Pantai Timang is a good place to visit,Bahari,Yogyakarta,10000,4.7,90,"{'lat': -8.1759266, 'lng': 110.6624196}",-8.1759266,110.6624196
169,Puncak Segoro,Puncak Segoro is a good place to visit,Cagar Alam,Yogyakarta,5000,4.2,90,"{'lat': -8.1026167, 'lng': 110.4562084}",-8.1026167,110.4562084
170,Candi Borobudur,Candi Borobudur is a good place to visit,Budaya,Yogyakarta,50000,4.7,120,"{'lat': -7.6078738, 'lng': 110.2037513}",-7.6078738,110.2037513
171,Candi Ijo,Candi Ijo is a good place to visit,Budaya,Yogyakarta,5000,4.6,60,"{'lat': -7.783827600000001, 'lng': 110.5118987}",-7.7838276,110.5118987
172,Pantai Indrayanti,Pantai Indrayanti is a good place to visit,Bahari,Yogyakarta,10000,4.5,,"{'lat': -8.1508415, 'lng': 110.6129852}",-8.1508415,110.6129852
173,Pantai Nglambor,Pantai Nglambor is a good place to visit,Bahari,Yogyakarta,10000,4.4,,"{'lat': -8.1827028, 'lng': 110.6792399}",-8.1827028,110.6792399
174,Pasar Beringharjo,Pasar Beringharjo is a good place to visit,Pusat Perbelanjaan,Yogyakarta,0,4.5,60,"{'lat': -7.798794300000001, 'lng': 110.367443}",-7.7987943,110.367443
175,Museum Ullen Sentalu,Museum Ullen Sentalu is a good place to visit,Budaya,Yogyakarta,100000,4.7,120,"{'lat': -7.5978656, 'lng': 110.4233959}",-7.5978656,110.4233959
176,Museum Gunung Merapi,Museum Gunung Merapi is a good place to visit,Budaya,Yogyakarta,10000,4.4,60,"{'lat': -7.615927200000001, 'lng': 110.4243329}",-7.6159272,110.4243329
177,Pantai Parangtritis,Pantai Parangtritis is a good place to visit,Bahari,Yogyakarta,10000,4.5,,"{'lat': -8.024607999999999, 'lng': 110.3298045}",-8.024608,110.3298045
178,Goa Pindul,Goa Pindul is a good place to visit,Cagar Alam,Yogyakarta,40000,4.5,,"{'lat': -7.9339721, 'lng': 110.651966}",-7.9339721,110.651966
179,Candi Ratu Boko,Candi Ratu Boko is a good place to visit,Budaya,Yogyakarta,75000,4.6,90,"{'lat': -7.7705416, 'lng': 110.4894158}",-7.7705416,110.4894158
180,Pantai Depok Jogja,Pantai Depok Jogja is a good place to visit,Bahari,Yogyakarta,10000,4.3,,"{'lat': -8.0137087, 'lng': 110.2914777}",-8.0137087,110.2914777
181,Pantai Sundak,Pantai Sundak is a good place to visit,Bahari,Yogyakarta,5000,4.5,,"{'lat': -8.147072, 'lng': 110.6079043}",-8.147072,110.6079043
182,Hutan Mangrove Kulon Progo,Hutan Mangrove Kulon Progo is a good place to visit,Bahari,Yogyakarta,5000,4.1,120,"{'lat': -7.8933459, 'lng': 110.0198257}",-7.8933459,110.0198257
183,Jogja Bay Pirates Adventure Waterpark,Jogja Bay Pirates Adventure Waterpark is a good place to visit,Taman Hiburan,Yogyakarta,150000,4.4,,"{'lat': -7.747846099999999, 'lng': 110.4188754}",-7.7478461,110.4188754
184,Pantai Sepanjang,Pantai Sepanjang is a good place to visit,Bahari,Yogyakarta,10000,4.4,120,"{'lat': -8.136665599999999, 'lng': 110.5659962}",-8.1366656,110.5659962
185,Pantai Krakal,Pantai Krakal is a good place to visit,Bahari,Yogyakarta,10000,4.5,,"{'lat': -8.145019, 'lng': 110.5998857}",-8.145019,110.5998857
186,Pantai Glagah,Pantai Glagah is a good place to visit,Bahari,Yogyakarta,5000,4.4,,"{'lat': -7.911942699999999, 'lng': 110.0647339}",-7.9119427,110.0647339
187,Pantai Siung,Pantai Siung is a good place to visit,Bahari,Yogyakarta,10000,4.6,,"{'lat': -8.1818233, 'lng': 110.6832394}",-8.1818233,110.6832394
188,Pantai Sadranan,Pantai Sadranan is a good place to visit,Bahari,Yogyakarta,10000,4.6,,"{'lat': -8.145667999999997, 'lng': 110.6043914}",-8.145668,110.6043914
189,Pantai Nguluran,Pantai Nguluran is a good place to visit,Bahari,Yogyakarta,10000,4.1,,"{'lat': -8.1060061, 'lng': 110.4618655}",-8.1060061,110.4618655
190,Pantai Samas,Pantai Samas is a good place to visit,Bahari,Yogyakarta,4000,4,45,"{'lat': -8.0045535, 'lng': 110.2703756}",-8.0045535,110.2703756
191,Pantai Drini,Pantai Drini is a good place to visit,Bahari,Yogyakarta,10000,4.5,,"{'lat': -8.1384509, 'lng': 110.577522}",-8.1384509,110.577522
192,Air Terjun Sri Gethuk,Air Terjun Sri Gethuk is a good place to visit,Cagar Alam,Yogyakarta,15000,4.4,,"{'lat': -7.943178000000001, 'lng': 110.48924}",-7.943178,110.48924
193,Candi Sewu,Candi Sewu is a good place to visit,Budaya,Yogyakarta,50000,4.6,,"{'lat': -7.7439217, 'lng': 110.4929095}",-7.7439217,110.4929095
194,Pantai Wediombo,Pantai Wediombo is a good place to visit,Bahari,Yogyakarta,5000,4.5,,"{'lat': -8.1862462, 'lng': 110.709901}",-8.1862462,110.709901
195,Pantai Jogan,Pantai Jogan is a good place to visit,Bahari,Yogyakarta,5000,4.4,,"{'lat': -8.180135, 'lng': 110.6763715}",-8.180135,110.6763715
196,Pantai Ngrenehan,Pantai Ngrenehan is a good place to visit,Bahari,Yogyakarta,3000,4.4,,"{'lat': -8.1211475, 'lng': 110.5142337}",-8.1211475,110.5142337
197,Pantai Jungwok,Pantai Jungwok is a good place to visit,Bahari,Yogyakarta,5000,4.6,,"{'lat': -8.197822, 'lng': 110.7123397}",-8.197822,110.7123397
198,Pantai Greweng,Pantai Greweng is a good place to visit,Bahari,Yogyakarta,5000,4.6,,"{'lat': -8.197864399999998, 'lng': 110.7186216}",-8.1978644,110.7186216
199,Pantai Sedahan,Pantai Sedahan is a good place to visit,Bahari,Yogyakarta,5000,4.5,,"{'lat': -8.1978943, 'lng': 110.7208535}",-8.1978943,110.7208535
200,Pantai Watu Kodok,Pantai Watu Kodok is a good place to visit,Bahari,Yogyakarta,5000,4.6,,"{'lat': -8.1370556, 'lng': 110.5746611}",-8.1370556,110.5746611
201,Pantai Kesirat,Pantai Kesirat is a good place to visit,Bahari,Yogyakarta,5000,4.6,90,"{'lat': -8.096153500000002, 'lng': 110.4350483}",-8.0961535,110.4350483
202,Pantai Ngandong,Pantai Ngandong is a good place to visit,Bahari,Yogyakarta,10000,4.5,,"{'lat': -8.146423, 'lng': 110.6061408}",-8.146423,110.6061408
203,Galaxy Waterpark Jogja,Galaxy Waterpark Jogja is a good place to visit,Taman Hiburan,Yogyakarta,40000,4.3,,"{'lat': -7.815963299999999, 'lng': 110.4136917}",-7.8159633,110.4136917
204,Desa Wisata Pulesari,Desa Wisata Pulesari is a good place to visit,Taman Hiburan,Yogyakarta,0,4.4,,"{'lat': -7.625880599999999, 'lng': 110.371698}",-7.6258806,110.371698
205,Desa Wisata Tembi,Desa Wisata Tembi is a good place to visit,Taman Hiburan,Yogyakarta,50000,4.5,,"{'lat': -7.872567300000001, 'lng': 110.3546963}",-7.8725673,110.3546963
206,Wisata Kaliurang,Wisata Kaliurang is a good place to visit,Cagar Alam,Yogyakarta,8000,4.4,60,"{'lat': -7.6120675, 'lng': 110.4205209}",-7.6120675,110.4205209
207,Heha Sky View,Heha Sky View is a good place to visit,Taman Hiburan,Yogyakarta,15000,4.4,120,"{'lat': -7.8496144, 'lng': 110.478324}",-7.8496144,110.478324
208,Taman Sungai Mudal,Taman Sungai Mudal is a good place to visit,Cagar Alam,Yogyakarta,10000,4.6,150,"{'lat': -7.762813599999998, 'lng': 110.1161626}",-7.7628136,110.1161626
209,Pantai Sanglen,Pantai Sanglen is a good place to visit,Bahari,Yogyakarta,10000,4.5,,"{'lat': -8.1367456, 'lng': 110.5716362}",-8.1367456,110.5716362
210,Pantai Congot,Pantai Congot is a good place to visit,Bahari,Yogyakarta,3000,4.3,,"{'lat': -7.907542500000001, 'lng': 110.0535658}",-7.9075425,110.0535658
211,GunungTangkuban perahu,GunungTangkuban perahu is a good place to visit,Cagar Alam,Bandung,30000,4.5,,"{'lat': -6.759637700000001, 'lng': 107.6097807}",-6.7596377,107.6097807
212,Jalan Braga,Jalan Braga is a good place to visit,Budaya,Bandung,0,4.7,,"{'lat': -6.9150534, 'lng': 107.6089842}",-6.9150534,107.6089842
213,Gedung Sate,Gedung Sate is a good place to visit,Budaya,Bandung,5000,4.6,,"{'lat': -6.9024812, 'lng': 107.61881}",-6.9024812,107.61881
214,Trans Studio Bandung,Trans Studio Bandung is a good place to visit,Taman Hiburan,Bandung,280000,4.5,240,"{'lat': -6.9250943, 'lng': 107.6364944}",-6.9250943,107.6364944
215,Taman Hutan Raya Ir. H. Djuanda,Taman Hutan Raya Ir. H. Djuanda is a good place to visit,Cagar Alam,Bandung,15000,4.5,90,"{'lat': -6.8565791, 'lng': 107.6323734}",-6.8565791,107.6323734
216,Farm House Susu Lembang,Farm House Susu Lembang is a good place to visit,Taman Hiburan,Bandung,30000,4.4,,"{'lat': -6.832968999999999, 'lng': 107.6056183}",-6.832969,107.6056183
217,Kebun Binatang Bandung,Kebun Binatang Bandung is a good place to visit,Cagar Alam,Bandung,20000,4,180,"{'lat': -6.8897177, 'lng': 107.6077282}",-6.8897177,107.6077282
218,Kawah Putih,Kawah Putih is a good place to visit,Cagar Alam,Bandung,81000,4.5,,"{'lat': -7.166203899999999, 'lng': 107.4021256}",-7.1662039,107.4021256
219,Tebing Karaton,Tebing Karaton is a good place to visit,Cagar Alam,Bandung,15000,4.5,,"{'lat': -6.8340683, 'lng': 107.6636151}",-6.8340683,107.6636151
220,Dusun Bambu,Dusun Bambu is a good place to visit,Taman Hiburan,Bandung,25000,4.5,,"{'lat': -6.7897147, 'lng': 107.5791627}",-6.7897147,107.5791627
221,Museum Geologi Bandung,Museum Geologi Bandung is a good place to visit,Budaya,Bandung,2000,4.6,,"{'lat': -6.900716200000001, 'lng': 107.6214553}",-6.9007162,107.6214553
222,Museum Konferensi Asia Afrika,Museum Konferensi Asia Afrika is a good place to visit,Budaya,Bandung,0,4.6,60,"{'lat': -6.921109200000001, 'lng': 107.609597}",-6.9211092,107.609597
223,Masjid Raya Bandung,Masjid Raya Bandung is a good place to visit,Tempat Ibadah,Bandung,0,4.7,,"{'lat': -6.9216897, 'lng': 107.6061399}",-6.9216897,107.6061399
224,Dago Dreampark,Dago Dreampark is a good place to visit,Taman Hiburan,Bandung,40000,4.2,150,"{'lat': -6.8486423, 'lng': 107.625939}",-6.8486423,107.625939
225,Orchid Forest Cikole,Orchid Forest Cikole is a good place to visit,Taman Hiburan,Bandung,50000,4.6,150,"{'lat': -6.780493, 'lng': 107.637475}",-6.780493,107.637475
226,Kawasan Punclut,Kawasan Punclut is a good place to visit,Taman Hiburan,Bandung,20000,4.4,120,"{'lat': -6.8419756, 'lng': 107.622824}",-6.8419756,107.622824
227,Alun-Alun Kota Bandung,Alun-Alun Kota Bandung is a good place to visit,Taman Hiburan,Bandung,0,4.6,60,"{'lat': -6.9218571, 'lng': 107.6070141}",-6.9218571,107.6070141
228,Museum Sri Baduga,Museum Sri Baduga is a good place to visit,Budaya,Bandung,3000,4.5,,"{'lat': -6.9375748, 'lng': 107.603775}",-6.9375748,107.603775
229,Rabbit Town,Rabbit Town is a good place to visit,Taman Hiburan,Bandung,45000,4,90,"{'lat': -6.8669518, 'lng': 107.6100859}",-6.8669518,107.6100859
230,Stone Garden Citatah,Stone Garden Citatah is a good place to visit,Taman Hiburan,Bandung,30000,4.4,,"{'lat': -6.8281528, 'lng': 107.4350179}",-6.8281528,107.4350179
231,The Great Asia Africa,The Great Asia Africa is a good place to visit,Taman Hiburan,Bandung,50000,4.4,180,"{'lat': -6.833122999999999, 'lng': 107.6041595}",-6.833123,107.6041595
232,Bukit Moko,Bukit Moko is a good place to visit,Cagar Alam,Bandung,25000,4.5,,"{'lat': -6.8422202, 'lng': 107.6767988}",-6.8422202,107.6767988
233,Gunung Papandayan,Gunung Papandayan is a good place to visit,Cagar Alam,Bandung,30000,4.6,,"{'lat': -7.319325300000001, 'lng': 107.7310494}",-7.3193253,107.7310494
234,Amazing Art World,Amazing Art World is a good place to visit,Budaya,Bandung,75000,4.5,45,"{'lat': -6.8516591, 'lng': 107.5955534}",-6.8516591,107.5955534
235,Gua Belanda,Gua Belanda is a good place to visit,Cagar Alam,Bandung,15000,4.4,45,"{'lat': -6.8544594, 'lng': 107.6377907}",-6.8544594,107.6377907
236,Taman Balai Kota Bandung,Taman Balai Kota Bandung is a good place to visit,Taman Hiburan,Bandung,0,4.6,45,"{'lat': -6.912966000000001, 'lng': 107.6096031}",-6.912966,107.6096031
237,Panghegar Waterboom Bandung,Panghegar Waterboom Bandung is a good place to visit,Taman Hiburan,Bandung,75000,4.3,,"{'lat': -6.961403199999999, 'lng': 107.6227321}",-6.9614032,107.6227321
238,Gunung Manglayang,Gunung Manglayang is a good place to visit,Cagar Alam,Bandung,7500,4.5,,"{'lat': -6.876111099999999, 'lng': 107.7436111}",-6.8761111,107.7436111
239,Lembang Park & Zoo,Lembang Park & Zoo is a good place to visit,Cagar Alam,Bandung,50000,4.5,210,"{'lat': -6.8059154, 'lng': 107.5919726}",-6.8059154,107.5919726
240,Taman Lalu Lintas Ade Irma Suryani Nasution,Taman Lalu Lintas Ade Irma Suryani Nasution is a good place to visit,Taman Hiburan,Bandung,7000,4.4,60,"{'lat': -6.911211, 'lng': 107.6133389}",-6.911211,107.6133389
241,Lawangwangi Creative Space,Lawangwangi Creative Space is a good place to visit,Taman Hiburan,Bandung,0,4.4,120,"{'lat': -6.847898000000001, 'lng': 107.6276146}",-6.847898,107.6276146
242,Curug Dago,Curug Dago is a good place to visit,Cagar Alam,Bandung,12000,4,,"{'lat': -6.865522499999999, 'lng': 107.6181878}",-6.8655225,107.6181878
243,Kampung Korea Bandung,Kampung Korea Bandung is a good place to visit,Budaya,Bandung,15000,4.1,,"{'lat': -6.9154546, 'lng': 107.640769}",-6.9154546,107.640769
244,Kampung Batu Malakasari,Kampung Batu Malakasari is a good place to visit,Taman Hiburan,Bandung,10000,4.1,,"{'lat': -7.0093633, 'lng': 107.6069444}",-7.0093633,107.6069444
245,Jendela Alam,Jendela Alam is a good place to visit,Taman Hiburan,Bandung,20000,4.4,150,"{'lat': -6.819604, 'lng': 107.5964519}",-6.819604,107.5964519
246,Curug Tilu Leuwi Opat,Curug Tilu Leuwi Opat is a good place to visit,Cagar Alam,Bandung,10000,4.4,120,"{'lat': -6.790569199999999, 'lng': 107.5826388}",-6.7905692,107.5826388
247,Kiara Artha Park,Kiara Artha Park is a good place to visit,Taman Hiburan,Bandung,15000,4.4,,"{'lat': -6.9159459, 'lng': 107.6421462}",-6.9159459,107.6421462
248,NuArt Sculpture Park,NuArt Sculpture Park is a good place to visit,Taman Hiburan,Bandung,50000,4.7,,"{'lat': -6.8778589, 'lng': 107.5720263}",-6.8778589,107.5720263
249,Upside Down World Bandung,Upside Down World Bandung is a good place to visit,Taman Hiburan,Bandung,100000,4,30,"{'lat': -6.896300000000001, 'lng': 107.617}",-6.8963,107.617
250,Pesona Nirwana Waterpark & Cottages,Pesona Nirwana Waterpark & Cottages is a good place to visit,Taman Hiburan,Bandung,50000,4.1,,"{'lat': -7.040915399999998, 'lng': 107.5269156}",-7.0409154,107.5269156
251,Taman Lansia,Taman Lansia is a good place to visit,Taman Hiburan,Bandung,0,4.4,,"{'lat': -6.9021326, 'lng': 107.6209387}",-6.9021326,107.6209387
252,Kampoeng Tulip,Kampoeng Tulip is a good place to visit,Taman Hiburan,Bandung,15000,3.8,60,"{'lat': -6.963162, 'lng': 107.66195}",-6.963162,107.66195
253,Selasar Sunaryo Art Space,Selasar Sunaryo Art Space is a good place to visit,Taman Hiburan,Bandung,25000,4.6,,"{'lat': -6.8585406, 'lng': 107.6365486}",-6.8585406,107.6365486
254,Teras Cikapundung BBWS,Teras Cikapundung BBWS is a good place to visit,Taman Hiburan,Bandung,0,4.3,60,"{'lat': -6.8844199, 'lng': 107.6068344}",-6.8844199,107.6068344
255,Museum Barli,Museum Barli is a good place to visit,Budaya,Bandung,15000,4.4,180,"{'lat': -6.878238699999999, 'lng': 107.5875349}",-6.8782387,107.5875349
256,Wisata Batu Kuda,Wisata Batu Kuda is a good place to visit,Cagar Alam,Bandung,10000,4.4,,"{'lat': -6.893610600000001, 'lng': 107.7447399}",-6.8936106,107.7447399
257,Monumen Bandung Lautan Api,Monumen Bandung Lautan Api is a good place to visit,Budaya,Bandung,0,4.3,,"{'lat': -6.9338497, 'lng': 107.604925}",-6.9338497,107.604925
258,Museum Gedung Sate,Museum Gedung Sate is a good place to visit,Budaya,Bandung,5000,4.6,,"{'lat': -6.902637899999999, 'lng': 107.619169}",-6.9026379,107.619169
259,Monumen Perjuangan Rakyat Jawa Barat,Monumen Perjuangan Rakyat Jawa Barat is a good place to visit,Budaya,Bandung,0,4.5,45,"{'lat': -6.8934327, 'lng': 107.6185513}",-6.8934327,107.6185513
260,Museum Pos Indonesia,Museum Pos Indonesia is a good place to visit,Budaya,Bandung,0,4.5,,"{'lat': -6.902012999999998, 'lng': 107.6197787}",-6.902013,107.6197787
261,Ciwangun Indah Camp Official,Ciwangun Indah Camp Official is a good place to visit,Cagar Alam,Bandung,10000,4.3,,"{'lat': -6.786939, 'lng': 107.5837331}",-6.786939,107.5837331
262,Wot Batu,Wot Batu is a good place to visit,Cagar Alam,Bandung,50000,4.7,,"{'lat': -6.8597013, 'lng': 107.6360983}",-6.8597013,107.6360983
263,Curug Batu Templek,Curug Batu Templek is a good place to visit,Cagar Alam,Bandung,5000,4.1,90,"{'lat': -6.874363300000001, 'lng': 107.6844023}",-6.8743633,107.6844023
264,Gereja Katedral Santo Petrus Bandung,Gereja Katedral Santo Petrus Bandung is a good place to visit,Tempat Ibadah,Bandung,0,4.8,,"{'lat': -6.9148394, 'lng': 107.6105511}",-6.9148394,107.6105511
265,Museum Mandala Wangsit Siliwangi,Museum Mandala Wangsit Siliwangi is a good place to visit,Budaya,Bandung,0,4.4,60,"{'lat': -6.9173405, 'lng': 107.6112627}",-6.9173405,107.6112627
266,Caringin Tilu,Caringin Tilu is a good place to visit,Cagar Alam,Bandung,0,4.4,,"{'lat': -6.858046399999999, 'lng': 107.6647084}",-6.8580464,107.6647084
267,Panama Park 825,Panama Park 825 is a good place to visit,Taman Hiburan,Bandung,50000,4.4,,"{'lat': -6.9119768, 'lng': 107.569674}",-6.9119768,107.569674
268,Sudut Pandang Bandung,Sudut Pandang Bandung is a good place to visit,Taman Hiburan,Bandung,50000,4.6,150,"{'lat': -6.842363799999999, 'lng': 107.6232403}",-6.8423638,107.6232403
269,Bumi Perkemahan Batu Kuda,Bumi Perkemahan Batu Kuda is a good place to visit,Cagar Alam,Bandung,7500,4.5,,"{'lat': -6.893217299999999, 'lng': 107.7448856}",-6.8932173,107.7448856
270,Bukit Bintang,Bukit Bintang is a good place to visit,Cagar Alam,Bandung,25000,4.6,,"{'lat': -6.8417795, 'lng': 107.6768585}",-6.8417795,107.6768585
271,Taman Vanda,Taman Vanda is a good place to visit,Taman Hiburan,Bandung,0,4.3,45,"{'lat': -6.9140478, 'lng': 107.6101684}",-6.9140478,107.6101684
272,Taman Budaya Jawa Barat,Taman Budaya Jawa Barat is a good place to visit,Budaya,Bandung,0,4.3,120,"{'lat': -6.870099, 'lng': 107.6164386}",-6.870099,107.6164386
273,Curug Bugbrug,Curug Bugbrug is a good place to visit,Cagar Alam,Bandung,7500,4.3,120,"{'lat': -6.790388999999999, 'lng': 107.5777632}",-6.790389,107.5777632
274,Babakan Siliwangi City Forest Path Bandung,Babakan Siliwangi City Forest Path Bandung is a good place to visit,Cagar Alam,Bandung,0,4.6,,"{'lat': -6.8853746, 'lng': 107.6111899}",-6.8853746,107.6111899
275,Curug Cipanas,Curug Cipanas is a good place to visit,Cagar Alam,Bandung,20000,3.9,180,"{'lat': -6.7991958, 'lng': 107.5922088}",-6.7991958,107.5922088
276,Taman Jomblo,Taman Jomblo is a good place to visit,Taman Hiburan,Bandung,10000,4.1,30,"{'lat': -6.8980549, 'lng': 107.6094673}",-6.8980549,107.6094673
277,Peta Park,Peta Park is a good place to visit,Taman Hiburan,Bandung,15000,4.3,,"{'lat': -6.9317951, 'lng': 107.5883026}",-6.9317951,107.5883026
278,Masjid Daarut Tauhiid Bandung,Masjid Daarut Tauhiid Bandung is a good place to visit,Tempat Ibadah,Bandung,0,4.9,,"{'lat': -6.863526999999999, 'lng': 107.5899194}",-6.863527,107.5899194
279,Masjid Agung Trans Studio Bandung,Masjid Agung Trans Studio Bandung is a good place to visit,Tempat Ibadah,Bandung,0,4.8,,"{'lat': -6.925963500000001, 'lng': 107.6354278}",-6.9259635,107.6354278
280,Gereja Tiberias Indonesia Bandung,Gereja Tiberias Indonesia Bandung is a good place to visit,Tempat Ibadah,Bandung,0,4.9,,"{'lat': -6.9347698, 'lng': 107.6253513}",-6.9347698,107.6253513
281,Tektona Waterpark,Tektona Waterpark is a good place to visit,Taman Hiburan,Bandung,60000,3.8,,"{'lat': -7.009602199999999, 'lng': 107.6062161}",-7.0096022,107.6062161
282,Curug Cilengkrang,Curug Cilengkrang is a good place to visit,Cagar Alam,Bandung,7500,4,60,"{'lat': -6.8908877, 'lng': 107.7307085}",-6.8908877,107.7307085
283,Jembatan Pasupati,Jembatan Pasupati is a good place to visit,Taman Hiburan,Bandung,0,4.6,,"{'lat': -6.900098700000001, 'lng': 107.6046708}",-6.9000987,107.6046708
284,Pasar Baru,Pasar Baru is a good place to visit,Pusat Perbelanjaan,Bandung,0,4.3,,"{'lat': -6.9177044, 'lng': 107.6036014}",-6.9177044,107.6036014
285,Taman Sejarah Bandung,Taman Sejarah Bandung is a good place to visit,Budaya,Bandung,0,4.6,45,"{'lat': -6.9103086, 'lng': 107.6098619}",-6.9103086,107.6098619
286,Roemah Seni Sarasvati,Roemah Seni Sarasvati is a good place to visit,Budaya,Bandung,0,4.4,,"{'lat': -6.9204173, 'lng': 107.5996425}",-6.9204173,107.5996425
287,Puspa Iptek Sundial,Puspa Iptek Sundial is a good place to visit,Taman Hiburan,Bandung,25000,4.4,,"{'lat': -6.852207999999999, 'lng': 107.493882}",-6.852208,107.493882
288,Masjid Salman ITB,Masjid Salman ITB is a good place to visit,Tempat Ibadah,Bandung,0,4.8,,"{'lat': -6.893664299999999, 'lng': 107.611271}",-6.8936643,107.611271
289,Curug Aseupan,Curug Aseupan is a good place to visit,Cagar Alam,Bandung,10000,4.7,,"{'lat': -6.7875652, 'lng': 107.5822844}",-6.7875652,107.5822844
290,Museum Pendidikan Nasional,Museum Pendidikan Nasional is a good place to visit,Budaya,Bandung,5000,4.6,,"{'lat': -6.859747400000001, 'lng': 107.5941693}",-6.8597474,107.5941693
291,Water Park Bandung Indah,Water Park Bandung Indah is a good place to visit,Taman Hiburan,Bandung,50000,4,,"{'lat': -6.980580700000001, 'lng': 107.5856567}",-6.9805807,107.5856567
292,Curug Anom,Curug Anom is a good place to visit,Cagar Alam,Bandung,0,4.6,,"{'lat': -6.811600899999998, 'lng': 107.5695213}",-6.8116009,107.5695213
293,Taman Badak,Taman Badak is a good place to visit,Taman Hiburan,Bandung,0,4.5,,"{'lat': -6.9132752, 'lng': 107.6094908}",-6.9132752,107.6094908
294,Taman Film,Taman Film is a good place to visit,Budaya,Bandung,0,4.3,90,"{'lat': -6.8986869, 'lng': 107.6077451}",-6.8986869,107.6077451
295,Museum Nike Ardilla,Museum Nike Ardilla is a good place to visit,Budaya,Bandung,0,4.6,,"{'lat': -6.9406015, 'lng': 107.6725445}",-6.9406015,107.6725445
296,Batununggal Indah Club,Batununggal Indah Club is a good place to visit,Taman Hiburan,Bandung,70000,4.4,,"{'lat': -6.963229999999999, 'lng': 107.626416}",-6.96323,107.626416
297,Mountain View Golf Club,Mountain View Golf Club is a good place to visit,Cagar Alam,Bandung,375000,4.4,120,"{'lat': -6.8629384, 'lng': 107.6482191}",-6.8629384,107.6482191
298,Gunung Lalakon,Gunung Lalakon is a good place to visit,Cagar Alam,Bandung,0,4.8,,"{'lat': -6.958055600000001, 'lng': 107.5205556}",-6.9580556,107.5205556
299,Sendang Geulis Kahuripan,Sendang Geulis Kahuripan is a good place to visit,Cagar Alam,Bandung,10000,4.3,120,"{'lat': -6.7495268, 'lng': 107.478658}",-6.7495268,107.478658
300,Sanghyang Heuleut,Sanghyang Heuleut is a good place to visit,Cagar Alam,Bandung,10000,4.4,,"{'lat': -6.876513099999999, 'lng': 107.3422183}",-6.8765131,107.3422183
301,Lereng Anteng Panoramic Coffee Place,Lereng Anteng Panoramic Coffee Place is a good place to visit,Cagar Alam,Bandung,50000,4.4,150,"{'lat': -6.842535, 'lng': 107.622698}",-6.842535,107.622698
302,Masjid Pusdai,Masjid Pusdai is a good place to visit,Tempat Ibadah,Bandung,0,4.7,,"{'lat': -6.9000672, 'lng': 107.62587}",-6.9000672,107.62587
303,Masjid Al-Imtizaj,Masjid Al-Imtizaj is a good place to visit,Tempat Ibadah,Bandung,0,4.7,,"{'lat': -6.919424999999999, 'lng': 107.6078639}",-6.919425,107.6078639
304,Situ Cileunca,Situ Cileunca is a good place to visit,Cagar Alam,Bandung,2500,4.4,,"{'lat': -7.192328099999997, 'lng': 107.5510012}",-7.1923281,107.5510012
305,Sunrise Point Cukul,Sunrise Point Cukul is a good place to visit,Cagar Alam,Bandung,10000,4.6,,"{'lat': -7.233689000000002, 'lng': 107.5342933}",-7.233689,107.5342933
306,Sungai Palayangan,Sungai Palayangan is a good place to visit,Cagar Alam,Bandung,150000,4.6,,"{'lat': -7.1965023, 'lng': 107.5454594}",-7.1965023,107.5454594
307,Perkebunan Teh Malabar,Perkebunan Teh Malabar is a good place to visit,Cagar Alam,Bandung,5000,4.4,,"{'lat': -7.2274463, 'lng': 107.6050805}",-7.2274463,107.6050805
308,Pemandian Air Panas Ciater,Pemandian Air Panas Ciater is a good place to visit,Cagar Alam,Bandung,15000,4.3,,"{'lat': -6.738085299999999, 'lng': 107.6566092}",-6.7380853,107.6566092
309,Observatorium Bosscha,Observatorium Bosscha is a good place to visit,Cagar Alam,Bandung,25000,4.5,,"{'lat': -6.8246311, 'lng': 107.6171106}",-6.8246311,107.6171106
310,Taman Bunga Cihideung,Taman Bunga Cihideung is a good place to visit,Cagar Alam,Bandung,0,4.1,45,"{'lat': -6.8038883, 'lng': 107.5866313}",-6.8038883,107.5866313
311,The Lodge Maribaya,The Lodge Maribaya is a good place to visit,Cagar Alam,Bandung,25000,4.3,150,"{'lat': -6.829411199999999, 'lng': 107.6874666}",-6.8294112,107.6874666
312,Taman Hutan Raya Ir. H. Juanda,Taman Hutan Raya Ir. H. Juanda is a good place to visit,Cagar Alam,Bandung,11000,4.5,90,"{'lat': -6.8585841, 'lng': 107.6306089}",-6.8585841,107.6306089
313,Taman Begonia,Taman Begonia is a good place to visit,Cagar Alam,Bandung,10000,4.4,90,"{'lat': -6.8260163, 'lng': 107.6383564}",-6.8260163,107.6383564
314,Tafso Barn,Tafso Barn is a good place to visit,Cagar Alam,Bandung,0,4.2,180,"{'lat': -6.8426446, 'lng': 107.6228408}",-6.8426446,107.6228408
315,Curug Luhur Waterfall,Curug Luhur Waterfall is a good place to visit,Cagar Alam,Bandung,5000,4.2,,"{'lat': -6.8131767, 'lng': 107.7136367}",-6.8131767,107.7136367
316,Curug Malela,Curug Malela is a good place to visit,Cagar Alam,Bandung,10000,4.4,,"{'lat': -7.0182386, 'lng': 107.2072145}",-7.0182386,107.2072145
317,Curug Cimahi,Curug Cimahi is a good place to visit,Cagar Alam,Bandung,15000,4.6,30,"{'lat': -6.797738300000002, 'lng': 107.5783691}",-6.7977383,107.5783691
318,Situ Patenggang,Situ Patenggang is a good place to visit,Cagar Alam,Bandung,20000,4.5,,"{'lat': -7.1669649, 'lng': 107.3575344}",-7.1669649,107.3575344
319,Kawah Rengganis Cibuni,Kawah Rengganis Cibuni is a good place to visit,Cagar Alam,Bandung,5000,4.3,,"{'lat': -7.172412599999999, 'lng': 107.3766656}",-7.1724126,107.3766656
320,Pemandian Air Panas Cimanggu,Pemandian Air Panas Cimanggu is a good place to visit,Cagar Alam,Bandung,23000,3.9,60,"{'lat': -7.147152899999998, 'lng': 107.3901424}",-7.1471529,107.3901424
321,Glamping Lakeside Rancabali,Glamping Lakeside Rancabali is a good place to visit,Taman Hiburan,Bandung,30000,4.4,,"{'lat': -7.167590799999999, 'lng': 107.3532419}",-7.1675908,107.3532419
322,Bukit Jamur,Bukit Jamur is a good place to visit,Cagar Alam,Bandung,0,4.2,,"{'lat': -7.195110199999998, 'lng': 107.4312811}",-7.1951102,107.4312811
323,Kebun Tanaman Obat Sari Alam,Kebun Tanaman Obat Sari Alam is a good place to visit,Cagar Alam,Bandung,0,4.9,90,"{'lat': -6.601320999999999, 'lng': 106.632734}",-6.601321,106.632734
324,Happyfarm Ciwidey,Happyfarm Ciwidey is a good place to visit,Cagar Alam,Bandung,15000,4.2,90,"{'lat': -7.1147877, 'lng': 107.4380865}",-7.1147877,107.4380865
325,Saung Angklung Mang Udjo,Saung Angklung Mang Udjo is a good place to visit,Budaya,Bandung,75000,4.7,,"{'lat': -6.897136199999999, 'lng': 107.6558466}",-6.8971362,107.6558466
326,Taman Kupu-Kupu Cihanjuang,Taman Kupu-Kupu Cihanjuang is a good place to visit,Cagar Alam,Bandung,10000,4,,"{'lat': -6.8590047, 'lng': 107.568779}",-6.8590047,107.568779
327,Taman Miniatur Kereta Api,Taman Miniatur Kereta Api is a good place to visit,Taman Hiburan,Bandung,15000,4.4,,"{'lat': -6.817327, 'lng': 107.61794}",-6.817327,107.61794
328,Gua Pawon,Gua Pawon is a good place to visit,Cagar Alam,Bandung,10000,4.5,90,"{'lat': -6.8231833, 'lng': 107.4371655}",-6.8231833,107.4371655
329,Bukit Gantole Cililin,Bukit Gantole Cililin is a good place to visit,Cagar Alam,Bandung,0,4.4,45,"{'lat': -6.9588812, 'lng': 107.4713147}",-6.9588812,107.4713147
330,Bandros City Tour,Bandros City Tour is a good place to visit,Budaya,Bandung,40000,4.4,,"{'lat': -6.922081599999999, 'lng': 107.6073182}",-6.9220816,107.6073182
331,Kyotoku Floating Market,Kyotoku Floating Market is a good place to visit,Budaya,Bandung,175000,4.5,150,"{'lat': -6.819874999999999, 'lng': 107.618707}",-6.819875,107.618707
332,Rainbow Garden,Rainbow Garden is a good place to visit,Cagar Alam,Bandung,20000,4.6,90,"{'lat': -6.8179514, 'lng': 107.618914}",-6.8179514,107.618914
333,Kota Mini,Kota Mini is a good place to visit,Taman Hiburan,Bandung,20000,4.4,,"{'lat': -6.818688799999999, 'lng': 107.6169403}",-6.8186888,107.6169403
334,Chingu Cafe Little Seoul,Chingu Cafe Little Seoul is a good place to visit,Taman Hiburan,Bandung,50000,4.5,,"{'lat': -6.901224099999999, 'lng': 107.6099853}",-6.9012241,107.6099853
335,Candi Gedong Songo,Candi Gedong Songo is a good place to visit,Budaya,Semarang,10000,4.5,,"{'lat': -7.209886700000002, 'lng': 110.3421119}",-7.2098867,110.3421119
336,Grand Maerakaca,Grand Maerakaca is a good place to visit,Taman Hiburan,Semarang,15000,4.4,,"{'lat': -6.9605225, 'lng': 110.3863941}",-6.9605225,110.3863941
337,Kampung Pelangi,Kampung Pelangi is a good place to visit,Taman Hiburan,Semarang,3000,4.3,30,"{'lat': -6.988881200000001, 'lng': 110.4083781}",-6.9888812,110.4083781
338,Lawang Sewu,Lawang Sewu is a good place to visit,Budaya,Semarang,10000,4.6,,"{'lat': -6.9839099, 'lng': 110.4104342}",-6.9839099,110.4104342
339,Sam Poo Kong Temple,Sam Poo Kong Temple is a good place to visit,Budaya,Semarang,35000,4.5,,"{'lat': -6.996236599999999, 'lng': 110.398122}",-6.9962366,110.398122
340,Desa Wisata Lembah Kalipancur,Desa Wisata Lembah Kalipancur is a good place to visit,Taman Hiburan,Semarang,0,3.9,90,"{'lat': -7.0205245, 'lng': 110.3754605}",-7.0205245,110.3754605
341,Hutan Wisata Tinjomoyo Semarang,Hutan Wisata Tinjomoyo Semarang is a good place to visit,Cagar Alam,Semarang,3000,4.3,,"{'lat': -7.0296837, 'lng': 110.3999611}",-7.0296837,110.3999611
342,Taman Kasmaran,Taman Kasmaran is a good place to visit,Taman Hiburan,Semarang,3000,4.5,90,"{'lat': -6.9909404, 'lng': 110.4065932}",-6.9909404,110.4065932
343,Pantai Baruna,Pantai Baruna is a good place to visit,Bahari,Semarang,3000,4,,"{'lat': -6.945105199999999, 'lng': 110.3982398}",-6.9451052,110.3982398
344,Pantai Marina,Pantai Marina is a good place to visit,Bahari,Semarang,3000,4.1,,"{'lat': -6.948877, 'lng': 110.3893285}",-6.948877,110.3893285
345,Kampoeng Djadhoel Semarang,Kampoeng Djadhoel Semarang is a good place to visit,Budaya,Semarang,10000,4.7,,"{'lat': -6.968773100000001, 'lng': 110.4319505}",-6.9687731,110.4319505
346,Indonesia Kaya Park,Indonesia Kaya Park is a good place to visit,Taman Hiburan,Semarang,0,4.6,45,"{'lat': -6.992350699999998, 'lng': 110.4201162}",-6.9923507,110.4201162
347,Taman Pandanaran,Taman Pandanaran is a good place to visit,Taman Hiburan,Semarang,0,4.4,45,"{'lat': -6.987793600000001, 'lng': 110.4172262}",-6.9877936,110.4172262
348,Pura Giri Natha,Pura Giri Natha is a good place to visit,Budaya,Semarang,20000,4.7,,"{'lat': -6.998475900000001, 'lng': 110.4106468}",-6.9984759,110.4106468
349,Wisata Mangrove Tapak,Wisata Mangrove Tapak is a good place to visit,Cagar Alam,Semarang,5000,4.3,90,"{'lat': -6.968561800000001, 'lng': 110.3459696}",-6.9685618,110.3459696
350,Pantai Cipta,Pantai Cipta is a good place to visit,Bahari,Semarang,5000,4,90,"{'lat': -6.9486402, 'lng': 110.4102923}",-6.9486402,110.4102923
351,Old City 3D Trick Art Museum,Old City 3D Trick Art Museum is a good place to visit,Budaya,Semarang,50000,4.4,,"{'lat': -6.968406400000001, 'lng': 110.4261995}",-6.9684064,110.4261995
352,GPIB Immanuel Semarang (Gereja Blenduk),GPIB Immanuel Semarang (Gereja Blenduk) is a good place to visit,Tempat Ibadah,Semarang,0,4.6,,"{'lat': -6.968348799999999, 'lng': 110.4274767}",-6.9683488,110.4274767
353,Taman Srigunting,Taman Srigunting is a good place to visit,Taman Hiburan,Semarang,0,4.7,,"{'lat': -6.9681728, 'lng': 110.4278262}",-6.9681728,110.4278262
354,Semarang Contemporary Art Gallery,Semarang Contemporary Art Gallery is a good place to visit,Budaya,Semarang,10000,4.6,90,"{'lat': -6.967499999999999, 'lng': 110.4282}",-6.9675,110.4282
355,Umbul Sidomukti,Umbul Sidomukti is a good place to visit,Cagar Alam,Semarang,75000,4.6,,"{'lat': -7.1945903, 'lng': 110.3733583}",-7.1945903,110.3733583
356,Saloka Theme Park,Saloka Theme Park is a good place to visit,Taman Hiburan,Semarang,150000,4.4,180,"{'lat': -7.280726200000001, 'lng': 110.4595539}",-7.2807262,110.4595539
357,Wisata Alam Wana Wisata Penggaron,Wisata Alam Wana Wisata Penggaron is a good place to visit,Cagar Alam,Semarang,10000,4.1,45,"{'lat': -7.115796899999999, 'lng': 110.4217966}",-7.1157969,110.4217966
358,Masjid Kapal Semarang,Masjid Kapal Semarang is a good place to visit,Tempat Ibadah,Semarang,0,4.1,,"{'lat': -7.018778199999999, 'lng': 110.2937134}",-7.0187782,110.2937134
359,Taman Bunga Celosia,Taman Bunga Celosia is a good place to visit,Cagar Alam,Semarang,25000,4.3,90,"{'lat': -7.225504099999998, 'lng': 110.3463166}",-7.2255041,110.3463166
360,Air Terjun Kali Pancur,Air Terjun Kali Pancur is a good place to visit,Cagar Alam,Semarang,5000,4.1,,"{'lat': -7.358096300000001, 'lng': 110.4210681}",-7.3580963,110.4210681
361,Wisata Kampung Krisan Clapar,Wisata Kampung Krisan Clapar is a good place to visit,Taman Hiburan,Semarang,10000,4.1,,"{'lat': -7.214158199999999, 'lng': 110.3769541}",-7.2141582,110.3769541
362,Danau Rawa Pening,Danau Rawa Pening is a good place to visit,Cagar Alam,Semarang,15000,4.4,,"{'lat': -7.2854929, 'lng': 110.4321671}",-7.2854929,110.4321671
363,Pantai Maron,Pantai Maron is a good place to visit,Bahari,Semarang,5000,3.4,,"{'lat': -6.9545687, 'lng': 110.3600951}",-6.9545687,110.3600951
364,Water Blaster Bukit Candi Golf,Water Blaster Bukit Candi Golf is a good place to visit,Taman Hiburan,Semarang,80000,4.2,60,"{'lat': -7.0218894, 'lng': 110.4383345}",-7.0218894,110.4383345
365,Waduk Jatibarang,Waduk Jatibarang is a good place to visit,Cagar Alam,Semarang,2500,4.3,,"{'lat': -7.0370499, 'lng': 110.3477586}",-7.0370499,110.3477586
366,Tirto Argo Siwarak,Tirto Argo Siwarak is a good place to visit,Taman Hiburan,Semarang,20000,4.4,150,"{'lat': -7.132106000000001, 'lng': 110.394523}",-7.132106,110.394523
367,Wisata Lereng Kelir,Wisata Lereng Kelir is a good place to visit,Cagar Alam,Semarang,7000,4.3,,"{'lat': -7.3126613, 'lng': 110.3746785}",-7.3126613,110.3746785
368,Kampoeng Rawa,Kampoeng Rawa is a good place to visit,Cagar Alam,Semarang,3000,4.5,,"{'lat': -7.267539000000001, 'lng': 110.418076}",-7.267539,110.418076
369,Monumen Palagan Ambarawa,Monumen Palagan Ambarawa is a good place to visit,Budaya,Semarang,7500,4.4,20,"{'lat': -7.259886099999998, 'lng': 110.4025602}",-7.2598861,110.4025602
370,Benteng Pendem,Benteng Pendem is a good place to visit,Budaya,Semarang,5000,4.2,60,"{'lat': -7.2706462, 'lng': 110.4103291}",-7.2706462,110.4103291
371,Wisata Eling Bening,Wisata Eling Bening is a good place to visit,Cagar Alam,Semarang,25000,4.3,90,"{'lat': -7.253109599999999, 'lng': 110.4264512}",-7.2531096,110.4264512
372,Gua Maria Kerep Ambarawa,Gua Maria Kerep Ambarawa is a good place to visit,Cagar Alam,Semarang,2000,4.8,,"{'lat': -7.255236400000001, 'lng': 110.3991897}",-7.2552364,110.3991897
373,Museum Kereta Ambarawa,Museum Kereta Ambarawa is a good place to visit,Budaya,Semarang,10000,4.5,60,"{'lat': -7.264598899999997, 'lng': 110.4046017}",-7.2645989,110.4046017
374,Hutan Pinus Kayon,Hutan Pinus Kayon is a good place to visit,Cagar Alam,Semarang,6000,4.4,,"{'lat': -7.395606000000001, 'lng': 110.4517727}",-7.395606,110.4517727
375,Kota Lama Semarang,Kota Lama Semarang is a good place to visit,Budaya,Semarang,0,4.7,90,"{'lat': -6.9681399, 'lng': 110.4278611}",-6.9681399,110.4278611
376,Semarang Chinatown,Semarang Chinatown is a good place to visit,Budaya,Semarang,30000,4.5,30,"{'lat': -6.974992299999999, 'lng': 110.424954}",-6.9749923,110.424954
377,La Kana Chapel,La Kana Chapel is a good place to visit,Taman Hiburan,Semarang,35000,4.5,,"{'lat': -7.215692300000001, 'lng': 110.3649392}",-7.2156923,110.3649392
378,Jembatan Biru Ambarawa,Jembatan Biru Ambarawa is a good place to visit,Taman Hiburan,Semarang,0,4.2,60,"{'lat': -7.267820100000002, 'lng': 110.4483217}",-7.2678201,110.4483217
379,Goa Rong,Goa Rong is a good place to visit,Cagar Alam,Semarang,5000,4.3,,"{'lat': -7.2721621, 'lng': 110.4698457}",-7.2721621,110.4698457
380,Masjid Agung Ungaran,Masjid Agung Ungaran is a good place to visit,Tempat Ibadah,Semarang,0,4.7,,"{'lat': -7.135070499999999, 'lng': 110.4088131}",-7.1350705,110.4088131
381,Tugu Muda Semarang,Tugu Muda Semarang is a good place to visit,Budaya,Semarang,0,4.7,,"{'lat': -6.9843485, 'lng': 110.4093207}",-6.9843485,110.4093207
382,Kampoeng Kopi Banaran,Kampoeng Kopi Banaran is a good place to visit,Taman Hiburan,Semarang,200000,4.3,90,"{'lat': -7.253900499999999, 'lng': 110.4414953}",-7.2539005,110.4414953
383,Taman Tabanas,Taman Tabanas is a good place to visit,Taman Hiburan,Semarang,0,4.4,60,"{'lat': -7.038803199999999, 'lng': 110.4215576}",-7.0388032,110.4215576
384,Kampung Tematik Jawi,Kampung Tematik Jawi is a good place to visit,Budaya,Semarang,0,4.5,90,"{'lat': -7.029097399999999, 'lng': 110.3775382}",-7.0290974,110.3775382
385,Kampung Batik Gedong Semarang,Kampung Batik Gedong Semarang is a good place to visit,Budaya,Semarang,0,4.4,45,"{'lat': -6.968882100000001, 'lng': 110.4318692}",-6.9688821,110.4318692
386,Air Terjun Semirang,Air Terjun Semirang is a good place to visit,Cagar Alam,Semarang,9000,4.4,,"{'lat': -7.166297100000002, 'lng': 110.381068}",-7.1662971,110.381068
387,Obyek Wisata Goa Kreo,Obyek Wisata Goa Kreo is a good place to visit,Cagar Alam,Semarang,5500,4.3,60,"{'lat': -7.0372113, 'lng': 110.3476164}",-7.0372113,110.3476164
388,Watu Gunung Ungaran,Watu Gunung Ungaran is a good place to visit,Cagar Alam,Semarang,25000,4.4,,"{'lat': -7.129806599999999, 'lng': 110.388832}",-7.1298066,110.388832
389,Brown Canyon,Brown Canyon is a good place to visit,Cagar Alam,Semarang,0,4.2,30,"{'lat': -7.0565164, 'lng': 110.4862531}",-7.0565164,110.4862531
390,Durian Gardens and Tourism Education Watu Simbar,Durian Gardens and Tourism Education Watu Simbar is a good place to visit,Cagar Alam,Semarang,5000,4.1,45,"{'lat': -7.096707899999999, 'lng': 110.3900517}",-7.0967079,110.3900517
391,Flower Farm Setiya Aji,Flower Farm Setiya Aji is a good place to visit,Cagar Alam,Semarang,7500,4.1,45,"{'lat': -7.2241813, 'lng': 110.3782661}",-7.2241813,110.3782661
392,Ekowisata Mangrove Wonorejo,Ekowisata Mangrove Wonorejo is a good place to visit,Cagar Alam,Surabaya,0,4.3,60,"{'lat': -7.308648199999999, 'lng': 112.8216622}",-7.3086482,112.8216622
393,Taman Harmoni Keputih,Taman Harmoni Keputih is a good place to visit,Cagar Alam,Surabaya,0,4.4,60,"{'lat': -7.2952211, 'lng': 112.8035603}",-7.2952211,112.8035603
394,Air Mancur Menari,Air Mancur Menari is a good place to visit,Taman Hiburan,Surabaya,35000,4.4,45,"{'lat': -7.2356933, 'lng': 112.7955234}",-7.2356933,112.7955234
395,Taman Prestasi,Taman Prestasi is a good place to visit,Taman Hiburan,Surabaya,0,4.6,,"{'lat': -7.2614722, 'lng': 112.7428284}",-7.2614722,112.7428284
396,Monumen Kapal Selam,Monumen Kapal Selam is a good place to visit,Budaya,Surabaya,15000,4.4,30,"{'lat': -7.2654304, 'lng': 112.7503052}",-7.2654304,112.7503052
397,Taman Kunang-Kunang,Taman Kunang-Kunang is a good place to visit,Taman Hiburan,Surabaya,0,4.4,45,"{'lat': -7.318220199999999, 'lng': 112.7842405}",-7.3182202,112.7842405
398,Taman Buah Surabaya,Taman Buah Surabaya is a good place to visit,Taman Hiburan,Surabaya,0,4.1,30,"{'lat': -7.266213899999999, 'lng': 112.795281}",-7.2662139,112.795281
399,Taman Pelangi,Taman Pelangi is a good place to visit,Taman Hiburan,Surabaya,0,4.5,20,"{'lat': -7.3275604, 'lng': 112.7312242}",-7.3275604,112.7312242
400,Hutan Bambu Keputih,Hutan Bambu Keputih is a good place to visit,Cagar Alam,Surabaya,0,4.3,25,"{'lat': -7.294190899999999, 'lng': 112.8017238}",-7.2941909,112.8017238
401,Taman Keputran,Taman Keputran is a good place to visit,Taman Hiburan,Surabaya,0,4.3,,"{'lat': -7.2732153, 'lng': 112.744102}",-7.2732153,112.744102
402,Food Junction Grand Pakuwon,Food Junction Grand Pakuwon is a good place to visit,Pusat Perbelanjaan,Surabaya,0,4.5,120,"{'lat': -7.251022000000003, 'lng': 112.6620053}",-7.251022,112.6620053
403,Taman Barunawati,Taman Barunawati is a good place to visit,Taman Hiburan,Surabaya,0,4.2,30,"{'lat': -7.222055899999998, 'lng': 112.7319967}",-7.2220559,112.7319967
404,Kenjeran Park,Kenjeran Park is a good place to visit,Taman Hiburan,Surabaya,35000,4.2,120,"{'lat': -7.252296400000001, 'lng': 112.7966952}",-7.2522964,112.7966952
405,Surabaya North Quay,Surabaya North Quay is a good place to visit,Taman Hiburan,Surabaya,50000,4.4,,"{'lat': -7.1968193, 'lng': 112.7324578}",-7.1968193,112.7324578
406,Kebun Bibit Wonorejo,Kebun Bibit Wonorejo is a good place to visit,Cagar Alam,Surabaya,0,4.4,30,"{'lat': -7.312365499999999, 'lng': 112.7889021}",-7.3123655,112.7889021
407,Taman Ekspresi Dan Perpustakaan,Taman Ekspresi Dan Perpustakaan is a good place to visit,Taman Hiburan,Surabaya,0,4.5,45,"{'lat': -7.2573072, 'lng': 112.7437199}",-7.2573072,112.7437199
408,Kebun Binatang Surabaya,Kebun Binatang Surabaya is a good place to visit,Cagar Alam,Surabaya,15000,4.3,180,"{'lat': -7.295954599999999, 'lng': 112.7366094}",-7.2959546,112.7366094
409,Rumah Batik,Rumah Batik is a good place to visit,Budaya,Surabaya,0,4.5,15,"{'lat': -7.278735999999999, 'lng': 112.718453}",-7.278736,112.718453
410,Ciputra Waterpark,Ciputra Waterpark is a good place to visit,Taman Hiburan,Surabaya,95000,4.3,90,"{'lat': -7.2861707, 'lng': 112.6333338}",-7.2861707,112.6333338
411,Masjid Muhammad Cheng Hoo,Masjid Muhammad Cheng Hoo is a good place to visit,Tempat Ibadah,Surabaya,0,4.7,,"{'lat': -7.252275399999999, 'lng': 112.7468796}",-7.2522754,112.7468796
412,Masjid Nasional Al-Akbar,Masjid Nasional Al-Akbar is a good place to visit,Tempat Ibadah,Surabaya,0,4.9,,"{'lat': -7.336614099999998, 'lng': 112.7151806}",-7.3366141,112.7151806
413,Museum TNI AL Loka Jala Crana,Museum TNI AL Loka Jala Crana is a good place to visit,Budaya,Surabaya,2000,4.5,,"{'lat': -7.227185, 'lng': 112.718997}",-7.227185,112.718997
414,Jembatan Merah,Jembatan Merah is a good place to visit,Budaya,Surabaya,0,4.5,30,"{'lat': -7.2367447, 'lng': 112.7383009}",-7.2367447,112.7383009
415,Museum De Javasche Bank,Museum De Javasche Bank is a good place to visit,Budaya,Surabaya,5000,4.6,60,"{'lat': -7.2353939, 'lng': 112.7367646}",-7.2353939,112.7367646
416,Keraton Surabaya,Keraton Surabaya is a good place to visit,Budaya,Surabaya,0,4.4,,"{'lat': -7.256755299999998, 'lng': 112.7942203}",-7.2567553,112.7942203
417,Klenteng Sanggar Agung,Klenteng Sanggar Agung is a good place to visit,Budaya,Surabaya,10000,4.5,,"{'lat': -7.246944, 'lng': 112.802222}",-7.246944,112.802222
418,Museum Sepuluh Nopember Kota Surabaya,Museum Sepuluh Nopember Kota Surabaya is a good place to visit,Budaya,Surabaya,5000,4.7,,"{'lat': -7.245436900000001, 'lng': 112.7378985}",-7.2454369,112.7378985
419,Monumen Tugu Pahlawan,Monumen Tugu Pahlawan is a good place to visit,Budaya,Surabaya,0,4.7,30,"{'lat': -7.246925999999999, 'lng': 112.73781}",-7.246926,112.73781
420,Surabaya Museum (Gedung Siola),Surabaya Museum (Gedung Siola) is a good place to visit,Budaya,Surabaya,0,4.5,45,"{'lat': -7.256297200000001, 'lng': 112.7379955}",-7.2562972,112.7379955
421,Museum Kesehatan Dr. Adhyatma,Museum Kesehatan Dr. Adhyatma is a good place to visit,Budaya,Surabaya,10000,4.4,,"{'lat': -7.240327999999999, 'lng': 112.731431}",-7.240328,112.731431
422,Monumen Jalesveva Jayamahe,Monumen Jalesveva Jayamahe is a good place to visit,Budaya,Surabaya,0,4.6,15,"{'lat': -7.195474799999999, 'lng': 112.7395206}",-7.1954748,112.7395206
423,Patung Sura dan Buaya,Patung Sura dan Buaya is a good place to visit,Budaya,Surabaya,0,4.6,30,"{'lat': -7.296049199999999, 'lng': 112.7387012}",-7.2960492,112.7387012
424,Pantai Ria Kenjeran,Pantai Ria Kenjeran is a good place to visit,Bahari,Surabaya,15000,4.2,45,"{'lat': -7.250916399999999, 'lng': 112.8009332}",-7.2509164,112.8009332
425,Waterpark Kenjeran Surabaya,Waterpark Kenjeran Surabaya is a good place to visit,Taman Hiburan,Surabaya,35000,4.1,,"{'lat': -7.247796300000002, 'lng': 112.7998235}",-7.2477963,112.7998235
426,Balai Kota Surabaya,Balai Kota Surabaya is a good place to visit,Budaya,Surabaya,0,4.7,60,"{'lat': -7.2592948, 'lng': 112.7470512}",-7.2592948,112.7470512
427,Patung Buddha Empat Rupa,Patung Buddha Empat Rupa is a good place to visit,Budaya,Surabaya,0,4.3,,"{'lat': -7.2472841, 'lng': 112.8010814}",-7.2472841,112.8010814
428,Monumen Bambu Runcing Surabaya,Monumen Bambu Runcing Surabaya is a good place to visit,Budaya,Surabaya,0,4.6,15,"{'lat': -7.267775500000001, 'lng': 112.7443898}",-7.2677755,112.7443898
429,House of Sampoerna,House of Sampoerna is a good place to visit,Budaya,Surabaya,0,4.6,30,"{'lat': -7.230817300000001, 'lng': 112.7342344}",-7.2308173,112.7342344
430,Atlantis Land Surabaya,Atlantis Land Surabaya is a good place to visit,Taman Hiburan,Surabaya,125000,4.4,120,"{'lat': -7.2516189, 'lng': 112.8009694}",-7.2516189,112.8009694
431,Taman Hiburan Rakyat,Taman Hiburan Rakyat is a good place to visit,Taman Hiburan,Surabaya,5000,4.2,,"{'lat': -7.252291, 'lng': 112.7520012}",-7.252291,112.7520012
432,Taman Mundu,Taman Mundu is a good place to visit,Taman Hiburan,Surabaya,0,4.4,30,"{'lat': -7.251604599999999, 'lng': 112.7545983}",-7.2516046,112.7545983
433,Museum Mpu Tantular,Museum Mpu Tantular is a good place to visit,Budaya,Surabaya,2000,4.4,45,"{'lat': -7.4338593, 'lng': 112.7199058}",-7.4338593,112.7199058
434,Taman Bungkul,Taman Bungkul is a good place to visit,Taman Hiburan,Surabaya,0,4.6,,"{'lat': -7.291346799999999, 'lng': 112.7398218}",-7.2913468,112.7398218
435,Taman Air Mancur Menari Kenjeran,Taman Air Mancur Menari Kenjeran is a good place to visit,Taman Hiburan,Surabaya,0,4.4,45,"{'lat': -7.2752955, 'lng': 112.7549381}",-7.2752955,112.7549381
436,Taman Flora Bratang Surabaya,Taman Flora Bratang Surabaya is a good place to visit,Taman Hiburan,Surabaya,0,4.6,,"{'lat': -7.294330299999999, 'lng': 112.7617534}",-7.2943303,112.7617534
437,Gereja Perawan Maria Tak Berdosa Surabaya,Gereja Perawan Maria Tak Berdosa Surabaya is a good place to visit,Tempat Ibadah,Surabaya,10000,4.8,,"{'lat': -7.2420758, 'lng': 112.7368158}",-7.2420758,112.7368158
